[
  {
    "country_code": "DE",
    "alpha3": "DEU",
    "name": "Germany",
    "longitude": 10.451526,
    "latitude": 51.165691,
    "world_region": "EMEA",
    "region": "Europe",
    "subregion": "Western Europe",
    "percentage": 22
  },
  {
    "country_code": "PL",
    "alpha3": "POL",
    "name": "Poland",
    "longitude": 19.145136,
    "latitude": 51.919438,
    "world_region": "EMEA",
    "region": "Europe",
    "subregion": "Eastern Europe",
    "percentage": 9
  },
  {
    "country_code": "ES",
    "alpha3": "ESP",
    "name": "Spain",
    "longitude": -3.74922,
    "latitude": 40.46366700000001,
    "world_region": "EMEA",
    "region": "Europe",
    "subregion": "Southern Europe",
    "percentage": 9
  },
  {
    "country_code": "GB",
    "alpha3": "GBR",
    "name": "United Kingdom",
    "longitude": -3.435973,
    "latitude": 55.378051,
    "world_region": "EMEA",
    "region": "Europe",
    "subregion": "Northern Europe",
    "percentage": 8
  },
  {
    "country_code": "FI",
    "alpha3": "FIN",
    "name": "Finland",
    "longitude": 25.7481511,
    "latitude": 61.92410999999999,
    "world_region": "EMEA",
    "region": "Europe",
    "subregion": "Northern Europe",
    "percentage": 4
  },
  {
    "country_code": "NL",
    "alpha3": "NLD",
    "name": "Netherlands",
    "longitude": 5.291265999999999,
    "latitude": 52.132633,
    "world_region": "EMEA",
    "region": "Europe",
    "subregion": "Western Europe",
    "percentage": 4
  },
  {
    "country_code": "XX",
    "alpha3": "XXX",
    "name": "Unknown",
    "longitude": 0,
    "latitude": 0,
    "world_region": "Unknown",
    "region": "Unknown",
    "subregion": "Unknown",
    "percentage": 4
  },
  {
    "country_code": "DK",
    "alpha3": "DNK",
    "name": "Denmark",
    "longitude": 9.501785,
    "latitude": 56.26392,
    "world_region": "EMEA",
    "region": "Europe",
    "subregion": "Northern Europe",
    "percentage": 4
  },
  {
    "country_code": "US",
    "alpha3": "USA",
    "name": "United States",
    "longitude": -95.712891,
    "latitude": 37.09024,
    "world_region": "AMER",
    "region": "Americas",
    "subregion": "Northern America",
    "percentage": 4
  },
  {
    "country_code": "BE",
    "alpha3": "BEL",
    "name": "Belgium",
    "longitude": 4.469936,
    "latitude": 50.503887,
    "world_region": "EMEA",
    "region": "Europe",
    "subregion": "Western Europe",
    "percentage": 4
  },
  {
    "country_code": "CH",
    "alpha3": "CHE",
    "name": "Switzerland",
    "longitude": 8.227511999999999,
    "latitude": 46.818188,
    "world_region": "EMEA",
    "region": "Europe",
    "subregion": "Western Europe",
    "percentage": 3
  },
  {
    "country_code": "CZ",
    "alpha3": "CZE",
    "name": "Czechia",
    "longitude": 15.472962,
    "latitude": 49.81749199999999,
    "world_region": "EMEA",
    "region": "Europe",
    "subregion": "Eastern Europe",
    "percentage": 2
  },
  {
    "country_code": "CA",
    "alpha3": "CAN",
    "name": "Canada",
    "longitude": -106.346771,
    "latitude": 56.130366,
    "world_region": "AMER",
    "region": "Americas",
    "subregion": "Northern America",
    "percentage": 2
  },
  {
    "country_code": "LT",
    "alpha3": "LTU",
    "name": "Lithuania",
    "longitude": 23.881275,
    "latitude": 55.169438,
    "world_region": "EMEA",
    "region": "Europe",
    "subregion": "Northern Europe",
    "percentage": 2
  },
  {
    "country_code": "HR",
    "alpha3": "HRV",
    "name": "Croatia",
    "longitude": 15.2000001,
    "latitude": 45.1,
    "world_region": "EMEA",
    "region": "Europe",
    "subregion": "Southern Europe",
    "percentage": 2
  },
  {
    "country_code": "IE",
    "alpha3": "IRL",
    "name": "Ireland",
    "longitude": -7.692053599999999,
    "latitude": 53.1423672,
    "world_region": "EMEA",
    "region": "Europe",
    "subregion": "Northern Europe",
    "percentage": 2
  },
  {
    "country_code": "AT",
    "alpha3": "AUT",
    "name": "Austria",
    "longitude": 14.550072,
    "latitude": 47.516231,
    "world_region": "EMEA",
    "region": "Europe",
    "subregion": "Western Europe",
    "percentage": 2
  },
  {
    "country_code": "SE",
    "alpha3": "SWE",
    "name": "Sweden",
    "longitude": 18.643501,
    "latitude": 60.12816100000001,
    "world_region": "EMEA",
    "region": "Europe",
    "subregion": "Northern Europe",
    "percentage": 2
  },
  {
    "country_code": "HU",
    "alpha3": "HUN",
    "name": "Hungary",
    "longitude": 19.5033041,
    "latitude": 47.162494,
    "world_region": "EMEA",
    "region": "Europe",
    "subregion": "Eastern Europe",
    "percentage": 1
  },
  {
    "country_code": "MX",
    "alpha3": "MEX",
    "name": "Mexico",
    "longitude": -102.552784,
    "latitude": 23.634501,
    "world_region": "AMER",
    "region": "Americas",
    "subregion": "Central America",
    "percentage": 1
  },
  {
    "country_code": "AU",
    "alpha3": "AUS",
    "name": "Australia",
    "longitude": 133.775136,
    "latitude": -25.274398,
    "world_region": "APAC",
    "region": "Oceania",
    "subregion": "Australia and New Zealand",
    "percentage": 1
  },
  {
    "country_code": "JP",
    "alpha3": "JPN",
    "name": "Japan",
    "longitude": 138.252924,
    "latitude": 36.204824,
    "world_region": "APAC",
    "region": "Asia",
    "subregion": "Eastern Asia",
    "percentage": 1
  },
  {
    "country_code": "BY",
    "alpha3": "BLR",
    "name": "Belarus",
    "longitude": 27.953389,
    "latitude": 53.709807,
    "world_region": "EMEA",
    "region": "Europe",
    "subregion": "Eastern Europe",
    "percentage": 1
  },
  {
    "country_code": "TH",
    "alpha3": "THA",
    "name": "Thailand",
    "longitude": 100.992541,
    "latitude": 15.870032,
    "world_region": "APAC",
    "region": "Asia",
    "subregion": "South-Eastern Asia",
    "percentage": 1
  },
  {
    "country_code": "UG",
    "alpha3": "UGA",
    "name": "Uganda",
    "longitude": 32.290275,
    "latitude": 1.373333,
    "world_region": "EMEA",
    "region": "Africa",
    "subregion": "Eastern Africa",
    "percentage": 1
  },
  {
    "country_code": "MG",
    "alpha3": "MDG",
    "name": "Madagascar",
    "longitude": 46.869107,
    "latitude": -18.766947,
    "world_region": "EMEA",
    "region": "Africa",
    "subregion": "Eastern Africa",
    "percentage": 1
  },
  {
    "country_code": "ME",
    "alpha3": "MNE",
    "name": "Montenegro",
    "longitude": 19.37439,
    "latitude": 42.708678,
    "world_region": "EMEA",
    "region": "Europe",
    "subregion": "Southern Europe",
    "percentage": 1
  },
  {
    "country_code": "PE",
    "alpha3": "PER",
    "name": "Peru",
    "longitude": -75.015152,
    "latitude": -9.189967,
    "world_region": "AMER",
    "region": "Americas",
    "subregion": "South America",
    "percentage": 1
  },
  {
    "country_code": "KE",
    "alpha3": "KEN",
    "name": "Kenya",
    "longitude": 37.906193,
    "latitude": -0.023559,
    "world_region": "EMEA",
    "region": "Africa",
    "subregion": "Eastern Africa",
    "percentage": 1
  },
  {
    "country_code": "TR",
    "alpha3": "TUR",
    "name": "Turkey",
    "longitude": 35.243322,
    "latitude": 38.963745,
    "world_region": "EMEA",
    "region": "Asia",
    "subregion": "Western Asia",
    "percentage": 1
  },
  {
    "country_code": "RU",
    "alpha3": "RUS",
    "name": "Russian Federation",
    "longitude": 105.318756,
    "latitude": 61.52401,
    "world_region": "EMEA",
    "region": "Europe",
    "subregion": "Eastern Europe",
    "percentage": 1
  },
  {
    "country_code": "UA",
    "alpha3": "UKR",
    "name": "Ukraine",
    "longitude": 31.1655799,
    "latitude": 48.379433,
    "world_region": "EMEA",
    "region": "Europe",
    "subregion": "Eastern Europe",
    "percentage": 1
  },
  {
    "country_code": "SI",
    "alpha3": "SVN",
    "name": "Slovenia",
    "longitude": 14.995463,
    "latitude": 46.151241,
    "world_region": "EMEA",
    "region": "Europe",
    "subregion": "Southern Europe",
    "percentage": 1
  },
  {
    "country_code": "BR",
    "alpha3": "BRA",
    "name": "Brazil",
    "longitude": -51.92528,
    "latitude": -14.235004,
    "world_region": "AMER",
    "region": "Americas",
    "subregion": "South America",
    "percentage": 1
  },
  {
    "country_code": "SK",
    "alpha3": "SVK",
    "name": "Slovakia",
    "longitude": 19.699024,
    "latitude": 48.669026,
    "world_region": "EMEA",
    "region": "Europe",
    "subregion": "Eastern Europe",
    "percentage": 1
  },
  {
    "country_code": "PT",
    "alpha3": "PRT",
    "name": "Portugal",
    "longitude": -8.224454,
    "latitude": 39.39987199999999,
    "world_region": "EMEA",
    "region": "Europe",
    "subregion": "Southern Europe",
    "percentage": 1
  },
  {
    "country_code": "FR",
    "alpha3": "FRA",
    "name": "France",
    "longitude": 2.213749,
    "latitude": 46.227638,
    "world_region": "EMEA",
    "region": "Europe",
    "subregion": "Western Europe",
    "percentage": 1
  },
  {
    "country_code": "NO",
    "alpha3": "NOR",
    "name": "Norway",
    "longitude": 8.468945999999999,
    "latitude": 60.47202399999999,
    "world_region": "EMEA",
    "region": "Europe",
    "subregion": "Northern Europe",
    "percentage": 1
  },
  {
    "country_code": "ZA",
    "alpha3": "ZAF",
    "name": "South Africa",
    "longitude": 22.937506,
    "latitude": -30.559482,
    "world_region": "EMEA",
    "region": "Africa",
    "subregion": "Southern Africa",
    "percentage": 1
  },
  {
    "country_code": "BG",
    "alpha3": "BGR",
    "name": "Bulgaria",
    "longitude": 25.48583,
    "latitude": 42.733883,
    "world_region": "EMEA",
    "region": "Europe",
    "subregion": "Eastern Europe",
    "percentage": 1
  },
  {
    "country_code": "RO",
    "alpha3": "ROU",
    "name": "Romania",
    "longitude": 24.96676,
    "latitude": 45.943161,
    "world_region": "EMEA",
    "region": "Europe",
    "subregion": "Eastern Europe",
    "percentage": 1
  },
  {
    "country_code": "CY",
    "alpha3": "CYP",
    "name": "Cyprus",
    "longitude": 33.429859,
    "latitude": 35.126413,
    "world_region": "EMEA",
    "region": "Asia",
    "subregion": "Western Asia",
    "percentage": 1
  },
  {
    "country_code": "IS",
    "alpha3": "ISL",
    "name": "Iceland",
    "longitude": -19.020835,
    "latitude": 64.963051,
    "world_region": "EMEA",
    "region": "Europe",
    "subregion": "Northern Europe",
    "percentage": 1
  },
  {
    "country_code": "AR",
    "alpha3": "ARG",
    "name": "Argentina",
    "longitude": -63.61667199999999,
    "latitude": -38.416097,
    "world_region": "AMER",
    "region": "Americas",
    "subregion": "South America",
    "percentage": 1
  },
  {
    "country_code": "IT",
    "alpha3": "ITA",
    "name": "Italy",
    "longitude": 12.56738,
    "latitude": 41.87194,
    "world_region": "EMEA",
    "region": "Europe",
    "subregion": "Southern Europe",
    "percentage": 1
  },
  {
    "country_code": "IN",
    "alpha3": "IND",
    "name": "India",
    "longitude": 78.96288,
    "latitude": 20.593684,
    "world_region": "APAC",
    "region": "Asia",
    "subregion": "Southern Asia",
    "percentage": 1
  },
  {
    "country_code": "LV",
    "alpha3": "LVA",
    "name": "Latvia",
    "longitude": 24.603189,
    "latitude": 56.879635,
    "world_region": "EMEA",
    "region": "Europe",
    "subregion": "Northern Europe",
    "percentage": 1
  },
  {
    "country_code": "GR",
    "alpha3": "GRC",
    "name": "Greece",
    "longitude": 21.824312,
    "latitude": 39.074208,
    "world_region": "EMEA",
    "region": "Europe",
    "subregion": "Southern Europe",
    "percentage": 1
  },
  {
    "country_code": "EE",
    "alpha3": "EST",
    "name": "Estonia",
    "longitude": 25.0136071,
    "latitude": 58.595272,
    "world_region": "EMEA",
    "region": "Europe",
    "subregion": "Northern Europe",
    "percentage": 1
  },
  {
    "country_code": "NG",
    "alpha3": "NGA",
    "name": "Nigeria",
    "longitude": 8.675277,
    "latitude": 9.081999,
    "world_region": "EMEA",
    "region": "Africa",
    "subregion": "Western Africa",
    "percentage": 1
  }
]